[
  {
    "institution": "NYU",
    "secondary_location": "",
    "name": "The Elmer Holmes Bobst Library",
    "address1": "70 Washington Square S",
    "address2": "",
    "city": "New York",
    "state": "NY",
    "postal_code": 10012,
    "country_code": "US",
    "lat": 40.7294229,
    "long": -73.99721449999998
  },
  {
    "institution": "NYU",
    "secondary_location": "",
    "name": "Avery Fisher Center for Music and Media",
    "address1": "70 Washington Square S",
    "address2": "",
    "city": "New York",
    "state": "NY",
    "postal_code": 10012,
    "country_code": "US",
    "lat": 40.7294229,
    "long": -73.99721449999998
  },
  {
    "institution": "NYU",
    "secondary_location": "",
    "name": "Courant Institute of Mathematical Sciences Library",
    "address1": "251 Mercer St",
    "address2": "",
    "city": "New York",
    "state": "NY",
    "postal_code": 1002,
    "country_code": "US",
    "lat": 40.7286908,
    "long": -73.99565969999998
  },
  {
    "institution": "NYU",
    "secondary_location": "Tandon School of Engineering",
    "name": "Bern Dibner Library of Science and Technology",
    "address1": "5 MetroTech Center",
    "address2": "",
    "city": "Brooklyn",
    "state": "NY",
    "postal_code": "11201-3840",
    "country_code": "US",
    "lat": 40.694543,
    "long": -73.98566590000001
  },
  {
    "institution": "NYU",
    "secondary_location": "",
    "name": "Fales Library & Special Collections",
    "address1": "70 Washington Square S",
    "address2": "",
    "city": "New York",
    "state": "NY",
    "postal_code": 10012,
    "country_code": "US",
    "lat": 40.7294229,
    "long": -73.99721449999998
  },
  {
    "institution": "NYU",
    "secondary_location": "Institute of Fine Arts",
    "name": "Stephen Chan & Conservation Libraries",
    "address1": "1 East 78th Street",
    "address2": "",
    "city": "New York",
    "state": "NY",
    "postal_code": 10076,
    "country_code": "US",
    "lat": 40.7762513,
    "long": -73.96378649999997
  },
  {
    "institution": "NYU",
    "secondary_location": "",
    "name": "Institute for the Study of the Ancient World Library",
    "address1": "15 East 84th Street",
    "address2": "",
    "city": "New York",
    "state": "NY",
    "postal_code": 10028,
    "country_code": "US",
    "lat": 40.7799188,
    "long": -73.96027459999999
  },
  {
    "institution": "NYU",
    "secondary_location": "School of Professional Studies",
    "name": "Jack Brause Library",
    "address1": "11 West 42nd Street",
    "address2": "Suite 510",
    "city": "New York",
    "state": "NY",
    "postal_code": 10036,
    "country_code": "US",
    "lat": 40.7541476,
    "long": -73.98185860000001
  },
  {
    "institution": "NYU",
    "secondary_location": "Medical Science Building",
    "name": "Sid and Ruth Lapidus Health Sciences Library",
    "address1": "550 First Ave.",
    "address2": "",
    "city": "New York",
    "state": "NY",
    "postal_code": 10016,
    "country_code": "US",
    "lat": 40.7421182,
    "long": -73.9739578
  },
  {
    "institution": "Mass Historical Society",
    "secondary_location": "",
    "name": "The MHS Library",
    "address1": "1154 Boylston St",
    "address2": "",
    "city": "Boston",
    "state": "MA",
    "postal_code": "02215",
    "country_code": "US",
    "lat": 42.3464454,
    "long": -71.08989070000001
  },
  {
    "institution": "Tufts University",
    "secondary_location": "",
    "name": "Tisch Library Building",
    "address1": "35 Professors Row",
    "address2": "",
    "city": "Medford",
    "state": "MA",
    "postal_code": "02155",
    "country_code": "US",
    "lat": 42.40617,
    "long": -71.11888239999996
  },
  {
    "institution": "Tufts University",
    "secondary_location": "",
    "name": "Hirsh Health Sciences Library",
    "address1": "145 Harrison Ave",
    "address2": "",
    "city": "Boston",
    "state": "MA",
    "postal_code": "02111",
    "country_code": "US",
    "lat": 42.3500802,
    "long": -71.0622717
  },
  {
    "institution": "Boston College",
    "secondary_location": "",
    "name": "Thomas P. O'Neill Jr. Library",
    "address1": "140 Commonwealth Avenue",
    "address2": "",
    "city": "Chestnut Hill",
    "state": "MA",
    "postal_code": "02467",
    "country_code": "US",
    "lat": 42.3402752,
    "long": -71.16659770000001
  },
  {
    "institution": "Boston College",
    "secondary_location": "",
    "name": "Boston College Law Library",
    "address1": "885 Centre St",
    "address2": "",
    "city": "Newton",
    "state": "MA",
    "postal_code": "02459",
    "country_code": "US",
    "lat": 42.3417402,
    "long": -71.19395420000001
  },
  {
    "institution": "Boston College",
    "secondary_location": "",
    "name": "Bapst Library",
    "address1": "89 College Rd",
    "address2": "",
    "city": "Chestnut Hill",
    "state": "MA",
    "postal_code": "02467",
    "country_code": "US",
    "lat": 42.3350565,
    "long": -71.17165569999997
  },
  {
    "institution": "Boston College",
    "secondary_location": "",
    "name": "Burns Library Archives and Manuscripts",
    "address1": "140 Commonwealth Avenue",
    "address2": "",
    "city": "Chestnut Hill",
    "state": "MA",
    "postal_code": "02467",
    "country_code": "US",
    "lat": 42.335008,
    "long": -71.169916
  },
  {
    "institution": "Boston University",
    "secondary_location": "",
    "name": "Mugar Memorial Library",
    "address1": "771 Commonwealth Avenue",
    "address2": "",
    "city": "Boston",
    "state": "MA",
    "postal_code": "02215",
    "country_code": "US",
    "lat": 42.3510419,
    "long": -71.1079277
  },
  {
    "institution": "Boston University",
    "secondary_location": "",
    "name": "Stone Science Library",
    "address1": "675 Commonwealth Avenue # 440",
    "address2": "",
    "city": "Boston",
    "state": "MA",
    "postal_code": "02215",
    "country_code": "US",
    "lat": 42.3501029,
    "long": -71.1037839
  },
  {
    "institution": "Boston University",
    "secondary_location": "",
    "name": "Frederick S. Pardee Management Library",
    "address1": "595 Commonwealth Avenue",
    "address2": "",
    "city": "Boston",
    "state": "MA",
    "postal_code": "02215",
    "country_code": "US",
    "lat": 42.3496315,
    "long": -71.09968459999999
  },
  {
    "institution": "Boston University",
    "secondary_location": "",
    "name": "School of Theology Library",
    "address1": "745 Commonwealth Avenue # 2",
    "address2": "",
    "city": "Boston",
    "state": "MA",
    "postal_code": "02215",
    "country_code": "US",
    "lat": 42.3504873,
    "long": -71.1073553
  },
  {
    "institution": "Boston University",
    "secondary_location": "",
    "name": "Music Library Boston University",
    "address1": "771 Commonwealth Avenue",
    "address2": "",
    "city": "Boston",
    "state": "MA",
    "postal_code": "02215",
    "country_code": "US",
    "lat": 42.3510419,
    "long": -71.1079277
  },
  {
    "institution": "Boston University",
    "secondary_location": "",
    "name": "Howard Gotlieb Archival Research Center",
    "address1": "771 Commonwealth Avenue",
    "address2": "",
    "city": "Boston",
    "state": "MA",
    "postal_code": "02215",
    "country_code": "US",
    "lat": 42.35107,
    "long": -71.10795
  },
  {
    "institution": "Brandeis University",
    "secondary_location": "",
    "name": "Robert D. Farber University Archives and Special Collections",
    "address1": "415 South St #70",
    "address2": "",
    "city": "Waltham",
    "state": "MA",
    "postal_code": "02453",
    "country_code": "US",
    "lat": 42.363403,
    "long": -71.261631
  },
  {
    "institution": "Brandeis University",
    "secondary_location": "",
    "name": "Brandeis Library",
    "address1": "415 South St #70",
    "address2": "",
    "city": "Waltham",
    "state": "MA",
    "postal_code": "02453",
    "country_code": "US",
    "lat": 42.3677767,
    "long": -71.25778209999999
  },
  {
    "institution": "Emerson College",
    "secondary_location": "",
    "name": "Iwasaki Library",
    "address1": "120 Boylston St",
    "address2": "",
    "city": "Boston",
    "state": "MA",
    "postal_code": "02116",
    "country_code": "US",
    "lat": 42.3522392,
    "long": -71.06579440000002
  },
  {
    "institution": "Harvard University",
    "secondary_location": "",
    "name": "Harry Elkins Widener Library",
    "address1": "1 Harvard Yard",
    "address2": "",
    "city": "Cambridge",
    "state": "MA",
    "postal_code": "02138",
    "country_code": "US",
    "lat": 42.374896,
    "long": -71.11606489999997
  },
  {
    "institution": "Harvard University",
    "secondary_location": "",
    "name": "Andover-Harvard Theological Library",
    "address1": "45 Francis Ave",
    "address2": "",
    "city": "Cambridge",
    "state": "MA",
    "postal_code": "02138",
    "country_code": "US",
    "lat": 42.37968000000001,
    "long": -71.11307669999997
  },
  {
    "institution": "Harvard University",
    "secondary_location": "",
    "name": "Houghton Library",
    "address1": "Quincy St & Harvard Street",
    "address2": "",
    "city": "Cambridge",
    "state": "MA",
    "postal_code": "02138",
    "country_code": "US",
    "lat": 42.3722917,
    "long": -71.11513939999998
  },
  {
    "institution": "Harvard University",
    "secondary_location": "",
    "name": "Harvard–Yenching Library",
    "address1": "2 Divinity Ave",
    "address2": "",
    "city": "Cambridge",
    "state": "MA",
    "postal_code": "02138",
    "country_code": "US",
    "lat": 42.3776106,
    "long": -71.1136674
  },
  {
    "institution": "Harvard University",
    "secondary_location": "",
    "name": "Grossman Library",
    "address1": "311 Sever Hall",
    "address2": "Harvard Yard",
    "city": "Cambridge",
    "state": "MA",
    "postal_code": "02138",
    "country_code": "US",
    "lat": 42.3744321,
    "long": -71.11551580000003
  },
  {
    "institution": "Harvard University",
    "secondary_location": "",
    "name": "Harvard Kennedy School Library",
    "address1": "79 John F. Kennedy St",
    "address2": "",
    "city": "Cambridge",
    "state": "MA",
    "postal_code": "02138",
    "country_code": "US",
    "lat": 42.3709808,
    "long": -71.12215270000002
  },
  {
    "institution": "Harvard University",
    "secondary_location": "",
    "name": "Cabot Science Library",
    "address1": "1 Oxford St",
    "address2": "",
    "city": "Cambridge",
    "state": "MA",
    "postal_code": "02138",
    "country_code": "US",
    "lat": 42.376431,
    "long": -71.11691819999999
  },
  {
    "institution": "Harvard University",
    "secondary_location": "",
    "name": "Harvard Law School Library",
    "address1": "1545 Massachusetts Ave",
    "address2": "",
    "city": "Cambridge",
    "state": "MA",
    "postal_code": "02138",
    "country_code": "US",
    "lat": 42.3779522,
    "long": -71.11852190000002
  },
  {
    "institution": "Harvard University",
    "secondary_location": "Harvard Business School",
    "name": "Baker Library | Bloomberg Center",
    "address1": "25 Harvard Way",
    "address2": "",
    "city": "Boston",
    "state": "MA",
    "postal_code": "02163",
    "country_code": "US",
    "lat": 42.3663987,
    "long": -71.12284679999999
  },
  {
    "institution": "Harvard University",
    "secondary_location": "",
    "name": "Loeb Music Library",
    "address1": "3 Oxford St",
    "address2": "",
    "city": "Cambridge",
    "state": "MA",
    "postal_code": "02138",
    "country_code": "US",
    "lat": 42.3768943,
    "long": -71.11693600000001
  },
  {
    "institution": "Harvard University",
    "secondary_location": "",
    "name": "Herbert Weir Smyth Classical Library",
    "address1": "1 Harvard St",
    "address2": "",
    "city": "Cambridge",
    "state": "MA",
    "postal_code": "02138",
    "country_code": "US",
    "lat": 42.3734257,
    "long": -71.1165211
  },
  {
    "institution": "Harvard University",
    "secondary_location": "",
    "name": "Monroe C Gutman Library",
    "address1": "6 Appian Way",
    "address2": "",
    "city": "Cambridge",
    "state": "MA",
    "postal_code": "02138",
    "country_code": "US",
    "lat": 42.3748852,
    "long": -71.12172809999998
  },
  {
    "institution": "Harvard University",
    "secondary_location": "",
    "name": "Fine Arts Library",
    "address1": "1805 Cambridge St",
    "address2": "",
    "city": "Cambridge",
    "state": "MA",
    "postal_code": "02138",
    "country_code": "US",
    "lat": 42.3764092,
    "long": -71.11823779999997
  },
  {
    "institution": "Harvard University",
    "secondary_location": "",
    "name": "Lamont Library",
    "address1": "11 Quincy St",
    "address2": "",
    "city": "Cambridge",
    "state": "MA",
    "postal_code": "02138",
    "country_code": "US",
    "lat": 42.372753,
    "long": -71.11548859999999
  },
  {
    "institution": "Harvard University",
    "secondary_location": "",
    "name": "Ernst Mayr Library of the Museum of Comparatize Zoology",
    "address1": "26 Oxford Street",
    "address2": "2nd Floor",
    "city": "Cambridge",
    "state": "MA",
    "postal_code": "02138",
    "country_code": "US",
    "lat": 42.3783625,
    "long": -71.1158208
  },
  {
    "institution": "Harvard University",
    "secondary_location": "",
    "name": "Frances Loeb Library",
    "address1": "48 Quincy St",
    "address2": "",
    "city": "Cambridge",
    "state": "MA",
    "postal_code": "02138",
    "country_code": "US",
    "lat": 42.3757999,
    "long": -71.11390770000003
  },
  {
    "institution": "Harvard University",
    "secondary_location": "",
    "name": "Tozzer Library",
    "address1": "21 Divinity Ave",
    "address2": "",
    "city": "Cambridge",
    "state": "MA",
    "postal_code": "02138",
    "country_code": "US",
    "lat": 42.3785051,
    "long": -71.11478110000002
  },
  {
    "institution": "Harvard University",
    "secondary_location": "",
    "name": "Physics Research Library",
    "address1": "17 Oxford St",
    "address2": "",
    "city": "Cambridge",
    "state": "MA",
    "postal_code": "02138",
    "country_code": "US",
    "lat": 42.3772499,
    "long": -71.11752910000001
  },
  {
    "institution": "Harvard University",
    "secondary_location": "",
    "name": "John G. Wolbach Library",
    "address1": "60 Garden St p",
    "address2": "",
    "city": "Cambridge",
    "state": "MA",
    "postal_code": "02138",
    "country_code": "US",
    "lat": 42.3815209,
    "long": -71.12768369999998
  },
  {
    "institution": "MIT University",
    "secondary_location": "",
    "name": "Barker Library",
    "address1": "77 Massachusetts Ave building 10-500",
    "address2": "",
    "city": "Cambridge",
    "state": "MA",
    "postal_code": "02139",
    "country_code": "US",
    "lat": 42.3592444,
    "long": -71.09313889999999
  },
  {
    "institution": "MIT University",
    "secondary_location": "",
    "name": "Dewey Library",
    "address1": "30 Wadsworth St",
    "address2": "",
    "city": "Cambridge",
    "state": "MA",
    "postal_code": "02139",
    "country_code": "US",
    "lat": 42.36098570000001,
    "long": -71.08429
  },
  {
    "institution": "MIT University",
    "secondary_location": "",
    "name": "Hayden Library",
    "address1": "160 Memorial Dr building 14s-100",
    "address2": "",
    "city": "Cambridge",
    "state": "MA",
    "postal_code": "02139",
    "country_code": "US",
    "lat": 42.359089,
    "long": -71.08955500000002
  },
  {
    "institution": "MIT University",
    "secondary_location": "",
    "name": "Institute Archives and Special Collections",
    "address1": "160 Memorial Dr building 14s-100",
    "address2": "",
    "city": "Cambridge",
    "state": "MA",
    "postal_code": "02139",
    "country_code": "US",
    "lat": 42.359089,
    "long": -71.08955500000002
  },
  {
    "institution": "MIT University",
    "secondary_location": "",
    "name": "Lewis Music Library",
    "address1": "77 Massachusetts Ave # 14E",
    "address2": "",
    "city": "Cambridge",
    "state": "MA",
    "postal_code": "02139",
    "country_code": "US",
    "lat": 42.359244,
    "long": -71.093139
  },
  {
    "institution": "MIT University",
    "secondary_location": "",
    "name": "Rotch Library",
    "address1": "77 Massachusetts Ave",
    "address2": "",
    "city": "Cambridge",
    "state": "MA",
    "postal_code": "02139",
    "country_code": "US",
    "lat": 42.359244,
    "long": -71.093139
  },
  {
    "institution": "New England School of Law",
    "secondary_location": "",
    "name": "Boston Law Library",
    "address1": "154 Stuart St",
    "address2": "",
    "city": "Boston",
    "state": "MA",
    "postal_code": "02116",
    "country_code": "US",
    "lat": 42.350807,
    "long": -71.066537
  },
  {
    "institution": "Northeastern University",
    "secondary_location": "",
    "name": "Snell Library",
    "address1": "360 Huntington Ave",
    "address2": "",
    "city": "Boston",
    "state": "MA",
    "postal_code": "02115",
    "country_code": "US",
    "lat": 42.340222,
    "long": -71.0892
  },
  {
    "institution": "Northeastern University",
    "secondary_location": "Knowles Law Center",
    "name": "School of Law Library",
    "address1": "416 Huntington Ave",
    "address2": "",
    "city": "Boston",
    "state": "MA",
    "postal_code": "02115",
    "country_code": "US",
    "lat": 42.339199,
    "long": -71.090882
  },
  {
    "institution": "Simmons College",
    "secondary_location": "",
    "name": "Beatley Library",
    "address1": "300 Fenway",
    "address2": "",
    "city": "Boston",
    "state": "MA",
    "postal_code": "02115",
    "country_code": "US",
    "lat": 42.339083,
    "long": -71.100065
  },
  {
    "institution": "Suffolk University Law School",
    "secondary_location": "",
    "name": "John Joseph Moakley Law Library",
    "address1": "120 Tremont St",
    "address2": "",
    "city": "Boston",
    "state": "MA",
    "postal_code": "02108",
    "country_code": "US",
    "lat": 42.356947,
    "long": -71.061235
  },
  {
    "institution": "Umass Boston",
    "secondary_location": "",
    "name": "Joseph P. Healey Library",
    "address1": "100 Morrissey Blvd.",
    "address2": "",
    "city": "Boston",
    "state": "MA",
    "postal_code": "02125",
    "country_code": "US",
    "lat": 42.314131,
    "long": -71.036405
  },
  {
    "institution": "Bard College",
    "secondary_location": "",
    "name": "Charles P. Stevenson Library",
    "address1": "1 Library Rd",
    "address2": "",
    "city": "Annandale-On-Hudson",
    "state": "NY",
    "postal_code": 12504,
    "country_code": "US",
    "lat": 42.022591,
    "long": -73.906437
  },
  {
    "institution": "Bard College",
    "secondary_location": "",
    "name": "Center for Curitorial Studies Library and Archives",
    "address1": "33 Garden Rd",
    "address2": "",
    "city": "Annandale-On-Hudson",
    "state": "NY",
    "postal_code": 12504,
    "country_code": "US",
    "lat": 42.020031,
    "long": -73.914052
  },
  {
    "institution": "Bard College",
    "secondary_location": "Levy Economics Institute",
    "name": "Levy Economics Institute Library",
    "address1": "30 Campus Rd",
    "address2": "",
    "city": "Annandale-On-Hudson",
    "state": "NY",
    "postal_code": 12504,
    "country_code": "US",
    "lat": 42.019387,
    "long": -73.907643
  },
  {
    "institution": "Bard College",
    "secondary_location": "Bard Graduate Center",
    "name": "Bard Graduate Center Library",
    "address1": "18 W 86th St",
    "address2": "",
    "city": "New York",
    "state": "NY",
    "postal_code": 10024,
    "country_code": "US",
    "lat": 40.785499,
    "long": -73.970629
  },
  {
    "institution": "Brooklyn Law School",
    "secondary_location": "",
    "name": "Brooklyn Law School Library",
    "address1": "250 Joralemon St",
    "address2": "",
    "city": "Brooklyn",
    "state": "NY",
    "postal_code": 11201,
    "country_code": "US",
    "lat": 40.691826,
    "long": -73.98966
  },
  {
    "institution": "CUNY",
    "secondary_location": "Baruch College",
    "name": "William and Anita Newman Library",
    "address1": "151 East 25th Street",
    "address2": "",
    "city": "New York",
    "state": "NY",
    "postal_code": 10010,
    "country_code": "US",
    "lat": 40.740745,
    "long": -73.982773
  },
  {
    "institution": "CUNY",
    "secondary_location": "Borough of Manhattan Community College",
    "name": "A. Philip Randolph Memorial Library",
    "address1": "199 Chambers Street",
    "address2": "Room S410",
    "city": "New York",
    "state": "NY",
    "postal_code": 10007,
    "country_code": "US",
    "lat": 40.717478,
    "long": -74.012293
  },
  {
    "institution": "CUNY",
    "secondary_location": "Bronx Community College",
    "name": "Bronx Community College Library",
    "address1": "2155 University Avenue",
    "address2": "",
    "city": "Bronx",
    "state": "NY",
    "postal_code": 10453,
    "country_code": "US",
    "lat": 40.858979,
    "long": -73.912661
  },
  {
    "institution": "CUNY",
    "secondary_location": "Brooklyn College",
    "name": "Brooklyn College Library",
    "address1": "2900 Bedford Avenue",
    "address2": "",
    "city": "Brooklyn",
    "state": "NY",
    "postal_code": 11210,
    "country_code": "US",
    "lat": 40.630893,
    "long": -73.951458
  },
  {
    "institution": "CUNY",
    "secondary_location": "City College of New York",
    "name": "CCNY Library",
    "address1": "North Academic Center",
    "address2": "1604 Amsterdam Ave",
    "city": "New York",
    "state": "NY",
    "postal_code": 10030,
    "country_code": "US",
    "lat": 40.820033,
    "long": -73.949749
  },
  {
    "institution": "CUNY",
    "secondary_location": "City College of New York",
    "name": "The Bernard and Anne Spitzer School of Architecture Library",
    "address1": "Spitzer Building",
    "address2": "140 Convent Ave",
    "city": "New York",
    "state": "NY",
    "postal_code": 10030,
    "country_code": "US",
    "lat": 40.817937,
    "long": -73.950528
  },
  {
    "institution": "CUNY",
    "secondary_location": "City College of New York",
    "name": "Art Visual Resources Library",
    "address1": "Compton Goethals Hall",
    "address2": "1618 Amsterdam Avenue New York",
    "city": "New York",
    "state": "NY",
    "postal_code": 10031,
    "country_code": "US",
    "lat": 40.822114,
    "long": -73.949634
  },
  {
    "institution": "CUNY",
    "secondary_location": "City College of New York",
    "name": "The Center for Worker Education Library",
    "address1": "25 Broadway 7 Floor",
    "address2": "",
    "city": "New York",
    "state": "NY",
    "postal_code": 10004,
    "country_code": "US",
    "lat": 40.705595,
    "long": -74.013971
  },
  {
    "institution": "CUNY",
    "secondary_location": "City College of New York",
    "name": "Dominican Institute Library",
    "address1": "North Academic Center",
    "address2": "1604 Amsterdam Ave",
    "city": "New York",
    "state": "NY",
    "postal_code": 10031,
    "country_code": "US",
    "lat": 40.820033,
    "long": -73.949749
  },
  {
    "institution": "CUNY",
    "secondary_location": "City College of New York",
    "name": "CCNY Music Library",
    "address1": "Shepard Hall",
    "address2": "159 Convent Ave",
    "city": "New York",
    "state": "NY",
    "postal_code": 10031,
    "country_code": "US",
    "lat": 40.821614,
    "long": -73.947943
  },
  {
    "institution": "CUNY",
    "secondary_location": "City College of New York",
    "name": "Morris Raphael Cohen Library",
    "address1": "North Academic Center",
    "address2": "1604 Amsterdam Ave",
    "city": "New York",
    "state": "NY",
    "postal_code": 10031,
    "country_code": "US",
    "lat": 40.820033,
    "long": -73.949749
  },
  {
    "institution": "CUNY",
    "secondary_location": "City College of New York",
    "name": "Science and Engineering Library",
    "address1": "Marshak Science Building",
    "address2": "180 Convent Avenue",
    "city": "New York",
    "state": "NY",
    "postal_code": 10031,
    "country_code": "US",
    "lat": 40.818837,
    "long": -73.948696
  },
  {
    "institution": "CUNY",
    "secondary_location": "College of Staten Island",
    "name": "College of Staten Island Library",
    "address1": "2800 Victory Boulevard",
    "address2": "",
    "city": "Staten Island",
    "state": "NY",
    "postal_code": 10315,
    "country_code": "US",
    "lat": 40.60799,
    "long": -74.157365
  },
  {
    "institution": "CUNY",
    "secondary_location": "CUNY Graduate Center",
    "name": "Mina Rees Library",
    "address1": "365 Fifth Avenue",
    "address2": "",
    "city": "New York",
    "state": "NY",
    "postal_code": 10016,
    "country_code": "US",
    "lat": 40.748579,
    "long": -73.983878
  },
  {
    "institution": "CUNY",
    "secondary_location": "CUNY Graduate School of Journalism",
    "name": "Journalism Research Center",
    "address1": "219 West 40th Street",
    "address2": "3rd Floor",
    "city": "New York",
    "state": "NY",
    "postal_code": 10018,
    "country_code": "US",
    "lat": 40.755343,
    "long": -73.988846
  },
  {
    "institution": "CUNY",
    "secondary_location": "CUNY School of Law",
    "name": "City University of New York School of Law Library",
    "address1": "2 Court Square",
    "address2": "",
    "city": "Long Island City",
    "state": "NY",
    "postal_code": 11101,
    "country_code": "US",
    "lat": 40.741139,
    "long": -73.959217
  },
  {
    "institution": "CUNY",
    "secondary_location": "Guttman Community College",
    "name": "Guttman Community College Information Commons",
    "address1": "50 West 40th Street",
    "address2": "",
    "city": "New York",
    "state": "NY",
    "postal_code": 10018,
    "country_code": "US",
    "lat": 40.752893,
    "long": -73.984059
  },
  {
    "institution": "CUNY",
    "secondary_location": "Hostos Community College",
    "name": "Hostos Community College Library",
    "address1": "475 Grand Concourse A308",
    "address2": "",
    "city": "Bronx",
    "state": "NY",
    "postal_code": 10451,
    "country_code": "US",
    "lat": 40.818304,
    "long": -73.927743
  },
  {
    "institution": "CUNY",
    "secondary_location": "Hunter College",
    "name": "Leon and Toby Cooperman Library",
    "address1": "695 Park Avenue East Building",
    "address2": "Room E-216",
    "city": "New York",
    "state": "NY",
    "postal_code": "",
    "country_code": "US",
    "lat": 40.768544,
    "long": -73.965188
  },
  {
    "institution": "CUNY",
    "secondary_location": "Hunter College",
    "name": "Health Professions Library",
    "address1": "Brookdale Campus",
    "address2": "425 East 25th Street",
    "city": "New York",
    "state": "NY",
    "postal_code": 10010,
    "country_code": "US",
    "lat": 40.73812,
    "long": -73.97588
  },
  {
    "institution": "CUNY",
    "secondary_location": "Hunter College",
    "name": "Schools of Social Work and Public Health Library",
    "address1": "2180 Third Avenue",
    "address2": "",
    "city": "119th Street New York",
    "state": "NY",
    "postal_code": 10035,
    "country_code": "US",
    "lat": 40.800073,
    "long": -73.939564
  },
  {
    "institution": "CUNY",
    "secondary_location": "Hunter College",
    "name": "Zabar Art Library",
    "address1": "North Building 695 Park Avenue",
    "address2": "",
    "city": "New York",
    "state": "NY",
    "postal_code": "",
    "country_code": "US",
    "lat": 40.768544,
    "long": -73.965188
  },
  {
    "institution": "CUNY",
    "secondary_location": "John Jay College of Criminal Justice",
    "name": "Lloyd Sealy Library",
    "address1": "899 10th Avenue",
    "address2": "",
    "city": "New York",
    "state": "NY",
    "postal_code": 10019,
    "country_code": "US",
    "lat": 40.770348,
    "long": -73.98822
  },
  {
    "institution": "CUNY",
    "secondary_location": "Kingsborough Community College",
    "name": "Robert J. Kibbee Library",
    "address1": "2001 Oriental Boulevard",
    "address2": "",
    "city": "Brooklyn",
    "state": "NY",
    "postal_code": 11235,
    "country_code": "US",
    "lat": 40.577814,
    "long": -73.935561
  },
  {
    "institution": "CUNY",
    "secondary_location": "LaGuardia Community College",
    "name": "LaGuardia Library Media Resources Center",
    "address1": "31-10 Thomson Avenue",
    "address2": "Room E101",
    "city": "Long Island City",
    "state": "NY",
    "postal_code": 11101,
    "country_code": "US",
    "lat": 40.743926,
    "long": -73.935066
  },
  {
    "institution": "CUNY",
    "secondary_location": "Lehman College",
    "name": "Leonard Lief Library",
    "address1": "250 Bedford Park Boulevard",
    "address2": "",
    "city": "West Bronx",
    "state": "NY",
    "postal_code": "10468-1589",
    "country_code": "US",
    "lat": 40.870804,
    "long": -73.886698
  },
  {
    "institution": "CUNY",
    "secondary_location": "Medgar Evers College",
    "name": "The Charles Evans Inniss Memorial Library",
    "address1": "1650 Bedford Avenue",
    "address2": "",
    "city": "Brooklyn",
    "state": "NY",
    "postal_code": 11225,
    "country_code": "US",
    "lat": 40.66635,
    "long": -73.958081
  },
  {
    "institution": "CUNY",
    "secondary_location": "New York City College of Technology",
    "name": "Ursula C. Schwerin Library",
    "address1": "300 Jay Street",
    "address2": "",
    "city": "Brooklyn",
    "state": "NY",
    "postal_code": 11201,
    "country_code": "US",
    "lat": 40.695493,
    "long": -73.987568
  },
  {
    "institution": "CUNY",
    "secondary_location": "Queens College",
    "name": "Benjamin S. Rosenthal Library",
    "address1": "65-30 Kissena Boulevard",
    "address2": "",
    "city": "Flushing",
    "state": "NY",
    "postal_code": 11367,
    "country_code": "US",
    "lat": 40.736353,
    "long": -73.820015
  },
  {
    "institution": "CUNY",
    "secondary_location": "Queens College",
    "name": "Queens College Art Library",
    "address1": "Rosenthal Library",
    "address2": "Level Six 65-30 Kissena Boulevard",
    "city": "Flushing",
    "state": "NY",
    "postal_code": 11367,
    "country_code": "US",
    "lat": 40.736353,
    "long": -73.820015
  },
  {
    "institution": "CUNY",
    "secondary_location": "Queens College",
    "name": "Queens College Music Library",
    "address1": "Music Building",
    "address2": "Room 225 65-30 Kissena Boulevard",
    "city": "Flushing",
    "state": "NY",
    "postal_code": 11367,
    "country_code": "US",
    "lat": 40.736373,
    "long": -73.819461
  },
  {
    "institution": "CUNY",
    "secondary_location": "Queensborough Community College",
    "name": "Kurt R. Schmeller Library",
    "address1": "222-05 56 Avenue",
    "address2": "",
    "city": "Bayside",
    "state": "NY",
    "postal_code": 11364,
    "country_code": "US",
    "lat": 40.755499,
    "long": -73.756519
  },
  {
    "institution": "CUNY",
    "secondary_location": "York College",
    "name": "York College Library",
    "address1": "94-20 Guy R. Brewer Boulevard",
    "address2": "",
    "city": "Jamaica",
    "state": "NY",
    "postal_code": 11451,
    "country_code": "US",
    "lat": 40.702297,
    "long": -73.796015
  },
  {
    "institution": "Columbia University",
    "secondary_location": "",
    "name": "Avery Architectual and Fine Arts Library",
    "address1": "300 Avery Hall",
    "address2": "1172 Amsterdam Avenue M.C. 0301",
    "city": "New York",
    "state": "NY",
    "postal_code": 10027,
    "country_code": "US",
    "lat": 40.808279,
    "long": -73.960969
  },
  {
    "institution": "Columbia University",
    "secondary_location": "Barnard College",
    "name": "Barnard College Library",
    "address1": "LeFrak Center",
    "address2": "Barnard Hall 3009 Broadway",
    "city": "New York",
    "state": "NY",
    "postal_code": 10027,
    "country_code": "US",
    "lat": 40.809236,
    "long": -73.963897
  },
  {
    "institution": "Columbia University",
    "secondary_location": "Union Theological Seminary",
    "name": "Burke Library",
    "address1": "3041 Broadway New York",
    "address2": "",
    "city": "New York",
    "state": "NY",
    "postal_code": 10027,
    "country_code": "US",
    "lat": 40.811327,
    "long": -73.961755
  },
  {
    "institution": "Columbia University",
    "secondary_location": "",
    "name": "Thomas J. Watson Library of Business and Economics",
    "address1": "130 Uris Hall 3022 Broadway New York",
    "address2": "",
    "city": "New York",
    "state": "NY",
    "postal_code": 10027,
    "country_code": "US",
    "lat": 40.81432,
    "long": -73.951775
  },
  {
    "institution": "Columbia University",
    "secondary_location": "",
    "name": "Butler Library",
    "address1": "535 West 114th St. New York",
    "address2": "",
    "city": "New York",
    "state": "NY",
    "postal_code": 10027,
    "country_code": "US",
    "lat": 40.806497,
    "long": -73.963305
  },
  {
    "institution": "Columbia University",
    "secondary_location": "",
    "name": "The Center for Human Rights Documentation & Research",
    "address1": "318 International Affairs 420 West 118 St. New York",
    "address2": "",
    "city": "New York",
    "state": "NY",
    "postal_code": 10027,
    "country_code": "US",
    "lat": 40.807743,
    "long": -73.959721
  },
  {
    "institution": "Columbia University",
    "secondary_location": "The Columbia Center for Oral History",
    "name": "Oral History Archives",
    "address1": "6th Floor East Butler Library 535 West 114th Street New York",
    "address2": "",
    "city": "New York",
    "state": "NY",
    "postal_code": 10027,
    "country_code": "US",
    "lat": 40.806399,
    "long": -73.963206
  },
  {
    "institution": "Columbia University",
    "secondary_location": "",
    "name": "Columbia Univerity Archives",
    "address1": "6th Floor Butler Library 535 West 114th St. M.C. 1127 New York",
    "address2": "",
    "city": "New York",
    "state": "NY",
    "postal_code": 10027,
    "country_code": "US",
    "lat": 40.806403,
    "long": -73.96322
  },
  {
    "institution": "Columbia University",
    "secondary_location": "",
    "name": "C.V. Starr East Asian Library",
    "address1": "300 Kent Hall 1140 Amsterdam Ave M.C. 3901 New York",
    "address2": "",
    "city": "New York",
    "state": "NY",
    "postal_code": 10027,
    "country_code": "US",
    "lat": 40.807272,
    "long": -73.961625
  },
  {
    "institution": "Columbia University",
    "secondary_location": "",
    "name": "Geology Library",
    "address1": "401 Northwest Corner Building 550 West 120th Street New York",
    "address2": "",
    "city": "New York",
    "state": "NY",
    "postal_code": 10027,
    "country_code": "US",
    "lat": 40.81011,
    "long": -73.961965
  },
  {
    "institution": "Columbia University",
    "secondary_location": "Columbia Medical Center campus",
    "name": "Augustus C. Long Health Sciences Library",
    "address1": "701 W 168th St",
    "address2": "",
    "city": "New York",
    "state": "NY",
    "postal_code": 10032,
    "country_code": "US",
    "lat": 40.842743,
    "long": -73.942573
  },
  {
    "institution": "Columbia University",
    "secondary_location": "Jewish Theological Seminary",
    "name": "Jewish Theological Seminary Library",
    "address1": "3080 Broadway New York",
    "address2": "",
    "city": "New York",
    "state": "NY",
    "postal_code": 10027,
    "country_code": "US",
    "lat": 40.8117,
    "long": -73.959708
  },
  {
    "institution": "Columbia University",
    "secondary_location": "",
    "name": "Journalism Library",
    "address1": "204 Pulitzer Hall 2950 Broadway New York",
    "address2": "",
    "city": "New York",
    "state": "NY",
    "postal_code": 10027,
    "country_code": "US",
    "lat": 40.807466,
    "long": -73.963632
  },
  {
    "institution": "Columbia University",
    "secondary_location": "",
    "name": "Arthur W. Diamond Law Library",
    "address1": "435 West 116th Street New York",
    "address2": "",
    "city": "New York",
    "state": "NY",
    "postal_code": 10027,
    "country_code": "US",
    "lat": 40.806879,
    "long": -73.960633
  },
  {
    "institution": "Columbia University",
    "secondary_location": "",
    "name": "Lehman Social Sciences Library",
    "address1": "300 International Affairs 420 W. 118th St. New York",
    "address2": "",
    "city": "New York",
    "state": "NY",
    "postal_code": 10027,
    "country_code": "US",
    "lat": 40.807743,
    "long": -73.959721
  },
  {
    "institution": "Columbia University",
    "secondary_location": "",
    "name": "Mathematics Library",
    "address1": "303 Mathematics 2990 Broadway New York",
    "address2": "",
    "city": "New York",
    "state": "NY",
    "postal_code": 10027,
    "country_code": "US",
    "lat": 40.809028,
    "long": -73.962742
  },
  {
    "institution": "Columbia University",
    "secondary_location": "",
    "name": "Philip L. Milstein Family College Library",
    "address1": "Butler Library 535 West 114th St. New York",
    "address2": "",
    "city": "New York",
    "state": "NY",
    "postal_code": 10027,
    "country_code": "US",
    "lat": 40.806403,
    "long": -73.96322
  },
  {
    "institution": "Columbia University",
    "secondary_location": "",
    "name": "Gabe M. Wiener Music and Arts Library",
    "address1": "701 Dodge Hall 2960 Broadway New York",
    "address2": "",
    "city": "New York",
    "state": "NY",
    "postal_code": 10027,
    "country_code": "US",
    "lat": 40.808036,
    "long": -73.963445
  },
  {
    "institution": "Columbia University",
    "secondary_location": "",
    "name": "Rare Book and Manuscript Library",
    "address1": "6th Floor East Butler Library 535 West 114th St.",
    "address2": "",
    "city": "New York",
    "state": "NY",
    "postal_code": 10027,
    "country_code": "US",
    "lat": 40.806399,
    "long": -73.963206
  },
  {
    "institution": "Columbia University",
    "secondary_location": "",
    "name": "Science and Engineering Library",
    "address1": "401 Northwest Corner Building 550 West 120th Street",
    "address2": "",
    "city": "New York",
    "state": "NY",
    "postal_code": 10027,
    "country_code": "US",
    "lat": 40.81011,
    "long": -73.961965
  },
  {
    "institution": "Columbia University",
    "secondary_location": "",
    "name": "Social Work Library",
    "address1": "1255 Amsterdam Avenue",
    "address2": "2nd Floor",
    "city": "New York",
    "state": "NY",
    "postal_code": 10027,
    "country_code": "US",
    "lat": 40.810246,
    "long": -73.958365
  },
  {
    "institution": "Columbia University",
    "secondary_location": "Teachers College",
    "name": "Gottesman Libraries",
    "address1": "525 W 120th St",
    "address2": "",
    "city": "New York",
    "state": "NY",
    "postal_code": 10027,
    "country_code": "US",
    "lat": 40.810175,
    "long": -73.960623
  },
  {
    "institution": "Fordham University",
    "secondary_location": "Rose Hill Campus",
    "name": "Walsh Library",
    "address1": "2691 Southern Boulevard",
    "address2": "",
    "city": "Bronx",
    "state": "NY",
    "postal_code": 10458,
    "country_code": "US",
    "lat": 40.859855,
    "long": -73.880898
  },
  {
    "institution": "Fordham University",
    "secondary_location": "Lincoln Center Campus",
    "name": "Quinn Library",
    "address1": "113 West 60th Street",
    "address2": "",
    "city": "New York",
    "state": "NY",
    "postal_code": 10023,
    "country_code": "US",
    "lat": 40.770718,
    "long": -73.98539
  },
  {
    "institution": "Fordham University",
    "secondary_location": "Westchester Campus",
    "name": "Westchester Library",
    "address1": "400 Westchester Avenue",
    "address2": "",
    "city": "West Harrison",
    "state": "NY",
    "postal_code": 10604,
    "country_code": "US",
    "lat": 41.029448,
    "long": -73.728943
  },
  {
    "institution": "The New School",
    "secondary_location": "",
    "name": "Performing Arts Library",
    "address1": "55 West 13th St",
    "address2": "2nd Floor",
    "city": "New York",
    "state": "NY",
    "postal_code": 10011,
    "country_code": "US",
    "lat": 40.736551,
    "long": -73.996616
  },
  {
    "institution": "The New School",
    "secondary_location": "",
    "name": "Archives and Special Collections",
    "address1": "68 5th Ave",
    "address2": "Lobby Level",
    "city": "New York",
    "state": "NY",
    "postal_code": 10011,
    "country_code": "US",
    "lat": 40.73535,
    "long": -73.994594
  },
  {
    "institution": "The New School",
    "secondary_location": "",
    "name": "University Center Library",
    "address1": "63 5th Ave",
    "address2": "Sixth Floor",
    "city": "New York",
    "state": "NY",
    "postal_code": 10003,
    "country_code": "US",
    "lat": 40.735487,
    "long": -73.993556
  },
  {
    "institution": "The New School",
    "secondary_location": "",
    "name": "List Center Library",
    "address1": "6 E. 16th Street",
    "address2": "",
    "city": "New York",
    "state": "NY",
    "postal_code": 10011,
    "country_code": "US",
    "lat": 40.736995,
    "long": -73.992221
  },
  {
    "institution": "Long Island University",
    "secondary_location": "The Palmer School of Library and Information Science",
    "name": "B. Davis Schwartz Memorial Library",
    "address1": "720 Northern Blvd",
    "address2": "",
    "city": "Greenvale",
    "state": "NY",
    "postal_code": 11548,
    "country_code": "US",
    "lat": 40.812534,
    "long": -73.626289
  },
  {
    "institution": "Pratt Institute",
    "secondary_location": "",
    "name": "Brooklyn Campus Library",
    "address1": "200 Willoughby Avenue",
    "address2": "",
    "city": "Brooklyn",
    "state": "NY",
    "postal_code": 11205,
    "country_code": "US",
    "lat": 40.691338,
    "long": -73.963016
  },
  {
    "institution": "Pratt Institute",
    "secondary_location": "",
    "name": "Manhattan Campus Library",
    "address1": "144 West 14th Street",
    "address2": "Room 410",
    "city": "New York",
    "state": "NY",
    "postal_code": "10011-7301",
    "country_code": "US",
    "lat": 40.738107,
    "long": -73.99901
  },
  {
    "institution": "St. John's University",
    "secondary_location": "",
    "name": "Main Library, St. Augustine Hall",
    "address1": "8000 Utopia Parkway",
    "address2": "",
    "city": "Queens",
    "state": "NY",
    "postal_code": 11439,
    "country_code": "US",
    "lat": 40.782318,
    "long": -73.794362
  },
  {
    "institution": "St. John's University",
    "secondary_location": "",
    "name": "Loretto Memorial Library",
    "address1": "300 Howard Avenue",
    "address2": "",
    "city": "Staten Island",
    "state": "NY",
    "postal_code": 10301,
    "country_code": "US",
    "lat": 40.618427,
    "long": -74.093864
  },
  {
    "institution": "St. John's University",
    "secondary_location": "",
    "name": "Kathryn and Shelby Cullom Davis Library",
    "address1": "101 Astor Place",
    "address2": "2nd Floor",
    "city": "New York",
    "state": "NY",
    "postal_code": 10003,
    "country_code": "US",
    "lat": 40.72996,
    "long": -73.989951
  },
  {
    "institution": "St. John's University",
    "secondary_location": "",
    "name": "Rittenberg Law Library",
    "address1": "8000 Utopia Pkwy",
    "address2": "",
    "city": "Jamaica",
    "state": "NY",
    "postal_code": 11439,
    "country_code": "US",
    "lat": 40.70009,
    "long": -73.795405
  },
  {
    "institution": "St. John's University",
    "secondary_location": "",
    "name": "Chin Ying Asian Library",
    "address1": "Sun Yat Sen Memorial Hall",
    "address2": "8000 Utopia Pkwy",
    "city": "Queens",
    "state": "NY",
    "postal_code": 11439,
    "country_code": "US",
    "lat": 40.782318,
    "long": -73.794362
  },
  {
    "institution": "Abraham Pollen Archives and Rare Book Library",
    "secondary_location": "",
    "name": "",
    "address1": "243 Charles St",
    "address2": "",
    "city": "Boston",
    "state": "MA",
    "postal_code": "02114",
    "country_code": "US",
    "lat": 42.362739,
    "long": -71.070154
  },
  {
    "institution": "American Antiquarian Society",
    "secondary_location": "",
    "name": "",
    "address1": "185 Salisbury St",
    "address2": "",
    "city": "Worcester",
    "state": "MA",
    "postal_code": "01609",
    "country_code": "US",
    "lat": 42.277229,
    "long": -71.810408
  },
  {
    "institution": "Armenian Library and Museum of America",
    "secondary_location": "",
    "name": "",
    "address1": "65 Main St",
    "address2": "",
    "city": "Watertown",
    "state": "MA",
    "postal_code": "02472",
    "country_code": "US",
    "lat": 42.366312,
    "long": -71.185711
  },
  {
    "institution": "Boston Athenaeum",
    "secondary_location": "",
    "name": "",
    "address1": "10 ½ Beacon St",
    "address2": "",
    "city": "Boston",
    "state": "MA",
    "postal_code": "02108",
    "country_code": "US",
    "lat": 42.358374,
    "long": -71.061856
  },
  {
    "institution": "Boston Public Library",
    "secondary_location": "",
    "name": "Central Library in Copley Squre",
    "address1": "700 Boylston Street",
    "address2": "",
    "city": "Boston",
    "state": "MA",
    "postal_code": "02116",
    "country_code": "US",
    "lat": 42.34925,
    "long": -71.07866
  },
  {
    "institution": "Boston Public Library",
    "secondary_location": "",
    "name": "Adams Street",
    "address1": "690 Adams Street",
    "address2": "",
    "city": "Dorchester",
    "state": "MA",
    "postal_code": "02122",
    "country_code": "US",
    "lat": 42.28638,
    "long": -71.05409
  },
  {
    "institution": "Boston Public Library",
    "secondary_location": "",
    "name": "Brighton",
    "address1": "40 Academy Hill Rd",
    "address2": "",
    "city": "Brighton",
    "state": "MA",
    "postal_code": "02135",
    "country_code": "US",
    "lat": 42.34756,
    "long": -71.15281
  },
  {
    "institution": "Boston Public Library",
    "secondary_location": "",
    "name": "Charlestown",
    "address1": "179 Main St",
    "address2": "",
    "city": "Charlestown",
    "state": "MA",
    "postal_code": "02129",
    "country_code": "US",
    "lat": 42.37577,
    "long": -71.06443
  },
  {
    "institution": "Boston Public Library",
    "secondary_location": "",
    "name": "Chinatown",
    "address1": "2 Boylston Street",
    "address2": "",
    "city": "Boston",
    "state": "MA",
    "postal_code": "02116",
    "country_code": "US",
    "lat": 42.35211,
    "long": -71.06313
  },
  {
    "institution": "Boston Public Library",
    "secondary_location": "",
    "name": "Codman Square",
    "address1": "690 Washington St",
    "address2": "",
    "city": "Dorchester",
    "state": "MA",
    "postal_code": "02124",
    "country_code": "US",
    "lat": 42.28766,
    "long": -71.07087
  },
  {
    "institution": "Boston Public Library",
    "secondary_location": "",
    "name": "Connolly",
    "address1": "433 Centre St",
    "address2": "",
    "city": "Jamaica Plain",
    "state": "MA",
    "postal_code": "02130",
    "country_code": "US",
    "lat": 42.32065,
    "long": -71.1111
  },
  {
    "institution": "Boston Public Library",
    "secondary_location": "",
    "name": "Dudley",
    "address1": "149 Dudley Street",
    "address2": "",
    "city": "Roxbury",
    "state": "MA",
    "postal_code": "02119",
    "country_code": "US",
    "lat": 42.32872,
    "long": -71.08443
  },
  {
    "institution": "Boston Public Library",
    "secondary_location": "",
    "name": "East Boston",
    "address1": "365 Bremen St East",
    "address2": "",
    "city": "Boston",
    "state": "MA",
    "postal_code": "02128",
    "country_code": "US",
    "lat": 42.37599,
    "long": -71.03062
  },
  {
    "institution": "Boston Public Library",
    "secondary_location": "",
    "name": "Egleston Square",
    "address1": "2044 Columbus Ave",
    "address2": "",
    "city": "Roxbury",
    "state": "MA",
    "postal_code": "02119",
    "country_code": "US",
    "lat": 42.31411,
    "long": -71.0957
  },
  {
    "institution": "Boston Public Library",
    "secondary_location": "",
    "name": "Faneuil",
    "address1": "419 Faneuil St",
    "address2": "",
    "city": "Brighton",
    "state": "MA",
    "postal_code": "02135",
    "country_code": "US",
    "lat": 42.35136,
    "long": -71.16788
  },
  {
    "institution": "Boston Public Library",
    "secondary_location": "",
    "name": "Fields Corner",
    "address1": "1520 Dorchester Ave",
    "address2": "",
    "city": "Dorchester",
    "state": "MA",
    "postal_code": "",
    "country_code": "US",
    "lat": 42.29889,
    "long": -71.06034
  },
  {
    "institution": "Boston Public Library",
    "secondary_location": "",
    "name": "Grove Hall",
    "address1": "41 Geneva Ave",
    "address2": "",
    "city": "Dorchester",
    "state": "MA",
    "postal_code": "02121",
    "country_code": "US",
    "lat": 42.30798,
    "long": -71.081192
  },
  {
    "institution": "Boston Public Library",
    "secondary_location": "",
    "name": "Honan-Allston",
    "address1": "300 North Harvard St",
    "address2": "",
    "city": "Allston",
    "state": "MA",
    "postal_code": "02134",
    "country_code": "US",
    "lat": 42.360119,
    "long": -71.12809
  },
  {
    "institution": "Boston Public Library",
    "secondary_location": "",
    "name": "Hyde Park",
    "address1": "35 Harvard Ave",
    "address2": "",
    "city": "Hyde Park",
    "state": "MA",
    "postal_code": "02136",
    "country_code": "US",
    "lat": 42.25711,
    "long": -71.12209
  },
  {
    "institution": "Boston Public Library",
    "secondary_location": "",
    "name": "Jamaica Plain",
    "address1": "30 South Street",
    "address2": "",
    "city": "Jamaica Plain",
    "state": "MA",
    "postal_code": "02130",
    "country_code": "US",
    "lat": 42.30862,
    "long": -71.11503
  },
  {
    "institution": "Boston Public Library",
    "secondary_location": "",
    "name": "Lower Mills",
    "address1": "27 Richmond St",
    "address2": "",
    "city": "Dorchester",
    "state": "MA",
    "postal_code": "02124",
    "country_code": "US",
    "lat": 42.27362,
    "long": -71.06854
  },
  {
    "institution": "Boston Public Library",
    "secondary_location": "",
    "name": "Mattapan",
    "address1": "1350 Blue Hill Ave",
    "address2": "",
    "city": "Mattapan",
    "state": "MA",
    "postal_code": "02126",
    "country_code": "US",
    "lat": 42.27749,
    "long": -71.09313
  },
  {
    "institution": "Boston Public Library",
    "secondary_location": "",
    "name": "North End",
    "address1": "25 Parmenter St",
    "address2": "",
    "city": "Boston",
    "state": "MA",
    "postal_code": "02113",
    "country_code": "US",
    "lat": 42.3641,
    "long": -71.05492
  },
  {
    "institution": "Boston Public Library",
    "secondary_location": "",
    "name": "Parker Hill",
    "address1": "1497 Tremont St",
    "address2": "",
    "city": "Roxbury",
    "state": "MA",
    "postal_code": "02120",
    "country_code": "US",
    "lat": 42.3325,
    "long": -71.0991
  },
  {
    "institution": "Boston Public Library",
    "secondary_location": "",
    "name": "Roslindale",
    "address1": "4246 Washington St",
    "address2": "",
    "city": "Roslindale",
    "state": "MA",
    "postal_code": "02131",
    "country_code": "US",
    "lat": 42.285629,
    "long": -71.12867
  },
  {
    "institution": "Boston Public Library",
    "secondary_location": "",
    "name": "South Boston",
    "address1": "646 East Broadway",
    "address2": "",
    "city": "South Boston",
    "state": "MA",
    "postal_code": "02127",
    "country_code": "US",
    "lat": 42.33579,
    "long": -71.03871
  },
  {
    "institution": "Boston Public Library",
    "secondary_location": "",
    "name": "South End",
    "address1": "685 Tremont St",
    "address2": "",
    "city": "Boston",
    "state": "MA",
    "postal_code": "02118",
    "country_code": "US",
    "lat": 42.34133,
    "long": -71.07713
  },
  {
    "institution": "Boston Public Library",
    "secondary_location": "",
    "name": "Uphams Corner",
    "address1": "500 Columbia Rd",
    "address2": "",
    "city": "Dorchester",
    "state": "MA",
    "postal_code": "02125",
    "country_code": "US",
    "lat": 42.31477,
    "long": -71.06758
  },
  {
    "institution": "Boston Public Library",
    "secondary_location": "",
    "name": "West End",
    "address1": "151 Cambridge St",
    "address2": "",
    "city": "Boston",
    "state": "MA",
    "postal_code": "02114",
    "country_code": "US",
    "lat": 42.36152,
    "long": -71.065
  },
  {
    "institution": "Boston Public Library",
    "secondary_location": "",
    "name": "West Roxbury",
    "address1": "1961 Centre St",
    "address2": "",
    "city": "West Roxbury",
    "state": "MA",
    "postal_code": "02132",
    "country_code": "US",
    "lat": 42.28355,
    "long": -71.15737
  },
  {
    "institution": "Boston Public Library",
    "secondary_location": "",
    "name": "West End",
    "address1": "151 Cambridge St",
    "address2": "",
    "city": "Boston",
    "state": "MA",
    "postal_code": "02114",
    "country_code": "US",
    "lat": 42.36152,
    "long": -71.065
  },
  {
    "institution": "Boston Public Library",
    "secondary_location": "",
    "name": "West Roxbury",
    "address1": "1961 Centre St",
    "address2": "",
    "city": "West Roxbury",
    "state": "MA",
    "postal_code": "02132",
    "country_code": "US",
    "lat": 42.28355,
    "long": -71.15737
  },
  {
    "institution": "Congregational Library and Archives",
    "secondary_location": "",
    "name": "",
    "address1": "14 Beacon St #206",
    "address2": "",
    "city": "Boston",
    "state": "MA",
    "postal_code": "02108",
    "country_code": "US",
    "lat": 42.357878,
    "long": -71.062357
  },
  {
    "institution": "Harvard University",
    "secondary_location": "",
    "name": "Harvard Film Archive",
    "address1": "24 Quincy St",
    "address2": "",
    "city": "Cambridge",
    "state": "MA",
    "postal_code": "02138",
    "country_code": "US",
    "lat": 42.373605,
    "long": -71.11423
  },
  {
    "institution": "Harvard University",
    "secondary_location": "",
    "name": "Peabody Museum of Archaeology and Ethnology at Harvard University",
    "address1": "11 Divinity Ave",
    "address2": "",
    "city": "Cambridge",
    "state": "MA",
    "postal_code": "02138",
    "country_code": "US",
    "lat": 42.378247,
    "long": -71.11467
  },
  {
    "institution": "Harvard University",
    "secondary_location": "",
    "name": "Harvard Semitic Museum",
    "address1": "6 Divinity Ave",
    "address2": "",
    "city": "Cambridge",
    "state": "MA",
    "postal_code": "02138",
    "country_code": "US",
    "lat": 42.378094,
    "long": -71.11398
  },
  {
    "institution": "John F. Kennedy Presidential Library & Museum",
    "secondary_location": "",
    "name": "",
    "address1": "Columbia Point",
    "address2": "",
    "city": "Boston",
    "state": "MA",
    "postal_code": "02125",
    "country_code": "US",
    "lat": 42.348434,
    "long": -71.07736
  },
  {
    "institution": "Museum of Fine Arts Boston",
    "secondary_location": "",
    "name": "The William Morris Hunt Memorial Library",
    "address1": "Horticultural Hall 2nd Floor 300 Massachusetts Avenue",
    "address2": "",
    "city": "Boston",
    "state": "MA",
    "postal_code": "02115",
    "country_code": "US",
    "lat": 42.342922,
    "long": -71.08526
  },
  {
    "institution": "National Archives at Boston",
    "secondary_location": "",
    "name": "",
    "address1": "380 Trapelo Rd",
    "address2": "",
    "city": "Waltham",
    "state": "MA",
    "postal_code": "02452",
    "country_code": "US",
    "lat": 42.397554,
    "long": -71.211915
  },
  {
    "institution": "Museum of African American History Boston",
    "secondary_location": "",
    "name": "",
    "address1": "46 Joy Street Beacon Hill",
    "address2": "",
    "city": "Boston",
    "state": "MA",
    "postal_code": "",
    "country_code": "US",
    "lat": 42.360007,
    "long": -71.065221
  },
  {
    "institution": "Museum of African American History Nantucket Campus",
    "secondary_location": "",
    "name": "",
    "address1": "29 York Street Five Corners",
    "address2": "",
    "city": "Nantucket",
    "state": "MA",
    "postal_code": "",
    "country_code": "US",
    "lat": 41.277456,
    "long": -70.098495
  },
  {
    "institution": "New England Genealogical Society",
    "secondary_location": "",
    "name": "",
    "address1": "99 - 101 Newbury St.",
    "address2": "",
    "city": "Boston",
    "state": "MA",
    "postal_code": "02116",
    "country_code": "US",
    "lat": 42.351797,
    "long": -71.075371
  },
  {
    "institution": "The Nichols House Museum",
    "secondary_location": "",
    "name": "",
    "address1": "55 Mt Vernon St",
    "address2": "",
    "city": "Boston",
    "state": "MA",
    "postal_code": "02108",
    "country_code": "US",
    "lat": 42.358487,
    "long": -71.065931
  },
  {
    "institution": "Northeastern University",
    "secondary_location": "Snell Library",
    "name": "Northeastern University Archives and Special Collections",
    "address1": "360 Huntington Ave",
    "address2": "",
    "city": "Boston",
    "state": "MA",
    "postal_code": "02115",
    "country_code": "US",
    "lat": 42.340065,
    "long": -71.088893
  },
  {
    "institution": "Harvard University",
    "secondary_location": "Radcliffe Institute for Advanced Study",
    "name": "The Arthur and Elizabeth Schlesinger Library",
    "address1": "10 Garden Street",
    "address2": "",
    "city": "Cambridge",
    "state": "MA",
    "postal_code": "02138",
    "country_code": "US",
    "lat": 42.376203,
    "long": -71.122323
  },
  {
    "institution": "State Library of Massachusetts",
    "secondary_location": "",
    "name": "",
    "address1": "24 Beacon Street",
    "address2": "State House Room 341",
    "city": "Boston",
    "state": "MA",
    "postal_code": "02133",
    "country_code": "US",
    "lat": 42.35831,
    "long": -71.06375
  },
  {
    "institution": "Boston University Wheelock College of Education and Human Development",
    "secondary_location": "",
    "name": "Wheelock College Archives",
    "address1": "2 Silber Way",
    "address2": "",
    "city": "Boston",
    "state": "MA",
    "postal_code": "02215",
    "country_code": "US",
    "lat": 42.34972,
    "long": -71.10071
  },
  {
    "institution": "American Jewish Historical Society Archives",
    "secondary_location": "",
    "name": "",
    "address1": "5 W 16th St",
    "address2": "",
    "city": "New York",
    "state": "NY",
    "postal_code": 10011,
    "country_code": "US",
    "lat": 40.73785,
    "long": -73.9933
  },
  {
    "institution": "Archdiocese of New York Archives",
    "secondary_location": "",
    "name": "",
    "address1": "201 Seminary Ave",
    "address2": "",
    "city": "Yonkers",
    "state": "NY",
    "postal_code": 10704,
    "country_code": "US",
    "lat": 40.92899,
    "long": -73.86376
  },
  {
    "institution": "The ARChive of Contemporary Music",
    "secondary_location": "",
    "name": "",
    "address1": "54 White St",
    "address2": "",
    "city": "New York",
    "state": "NY",
    "postal_code": 10013,
    "country_code": "US",
    "lat": 40.71858,
    "long": -74.00371
  },
  {
    "institution": "Archives of American Art, Smithsonian Institution",
    "secondary_location": "",
    "name": "",
    "address1": "300 Park Ave S #300",
    "address2": "",
    "city": "New York",
    "state": "NY",
    "postal_code": 10010,
    "country_code": "US",
    "lat": 40.73975,
    "long": -73.9869
  },
  {
    "institution": "Barnard College Archives",
    "secondary_location": "",
    "name": "423 Milstein Center for Teaching and Learning",
    "address1": "The Diana Center",
    "address2": "3009 Broadway",
    "city": "New York",
    "state": "NY",
    "postal_code": 10027,
    "country_code": "US",
    "lat": 40.809974,
    "long": -73.96290399999998
  },
  {
    "institution": "Brooklyn Historical Society Library and Archives",
    "secondary_location": "",
    "name": "Othmer Library",
    "address1": "128 Pierrepont St",
    "address2": "",
    "city": "Brooklyn",
    "state": "NY",
    "postal_code": 11201,
    "country_code": "US",
    "lat": 40.694789,
    "long": -73.99243790000003
  },
  {
    "institution": "Brooklyn Public Library",
    "secondary_location": "",
    "name": "Arlington Library",
    "address1": "203 Arlington Ave. at Warwick St.",
    "address2": "",
    "city": "Brooklyn",
    "state": "NY",
    "postal_code": 11207,
    "country_code": "US",
    "lat": 40.6806631,
    "long": -73.88734210000001
  },
  {
    "institution": "Brooklyn Public Library",
    "secondary_location": "",
    "name": "Bay Ridge Library",
    "address1": "7223 Ridge Blvd. at 73rd St.",
    "address2": "",
    "city": "Brooklyn",
    "state": "NY",
    "postal_code": 11209,
    "country_code": "US",
    "lat": 40.6336068,
    "long": -74.0295073
  },
  {
    "institution": "Brooklyn Public Library",
    "secondary_location": "",
    "name": "Bedford Library",
    "address1": "496 Franklin Avenue",
    "address2": "",
    "city": "Brooklyn",
    "state": "NY",
    "postal_code": 11238,
    "country_code": "US",
    "lat": 40.6336068,
    "long": -74.0295073
  },
  {
    "institution": "Brooklyn Public Library",
    "secondary_location": "",
    "name": "Borough Park Library",
    "address1": "1265 43rd St. at 13th Ave.",
    "address2": "",
    "city": "Brooklyn",
    "state": "NY",
    "postal_code": 11219,
    "country_code": "US",
    "lat": 40.6388562,
    "long": -73.9890175
  },
  {
    "institution": "Brooklyn Public Library",
    "secondary_location": "",
    "name": "Brighton Beach Library",
    "address1": "16 Brighton First Rd. at Brighton Beach Ave.",
    "address2": "",
    "city": "Brooklyn",
    "state": "NY",
    "postal_code": 11235,
    "country_code": "US",
    "lat": 40.5761784,
    "long": -73.9667995
  },
  {
    "institution": "Brooklyn Public Library",
    "secondary_location": "",
    "name": "Brooklyn Heights Library",
    "address1": "109 Remsen Street",
    "address2": "",
    "city": "Brooklyn",
    "state": "NY",
    "postal_code": 11201,
    "country_code": "US",
    "lat": 40.6940737,
    "long": -73.994015
  },
  {
    "institution": "Brooklyn Public Library",
    "secondary_location": "",
    "name": "Brower Park Library",
    "address1": "725 St Marks Ave",
    "address2": "",
    "city": "Brooklyn",
    "state": "NY",
    "postal_code": 11216,
    "country_code": "US",
    "lat": 40.6753629,
    "long": -73.948565
  },
  {
    "institution": "Brooklyn Public Library",
    "secondary_location": "",
    "name": "Brownsville Library",
    "address1": "61 Glenmore Ave. at Watkins St.",
    "address2": "",
    "city": "Brooklyn",
    "state": "NY",
    "postal_code": 11212,
    "country_code": "US",
    "lat": 40.6713447,
    "long": -73.9083882
  },
  {
    "institution": "Brooklyn Public Library",
    "secondary_location": "",
    "name": "Bushwick Library",
    "address1": "340 Bushwick Avenue",
    "address2": "",
    "city": "Brooklyn",
    "state": "NY",
    "postal_code": 11206,
    "country_code": "US",
    "lat": 40.7045694,
    "long": -73.9396101
  },
  {
    "institution": "Brooklyn Public Library",
    "secondary_location": "",
    "name": "Canarsie Library",
    "address1": "1580 Rockaway Pkwy. at Ave. J",
    "address2": "",
    "city": "Brooklyn",
    "state": "NY",
    "postal_code": 11236,
    "country_code": "US",
    "lat": 40.6422167,
    "long": -73.8995607
  },
  {
    "institution": "Brooklyn Public Library",
    "secondary_location": "",
    "name": "Carroll Gardens Library",
    "address1": "396 Clinton St.",
    "address2": "",
    "city": "Brooklyn",
    "state": "NY",
    "postal_code": 11231,
    "country_code": "US",
    "lat": 40.6831962,
    "long": -73.998016
  },
  {
    "institution": "Brooklyn Public Library",
    "secondary_location": "",
    "name": "Central Library",
    "address1": "10 Grand Army Plaza",
    "address2": "",
    "city": "Brooklyn",
    "state": "NY",
    "postal_code": 11238,
    "country_code": "US",
    "lat": 40.6725011,
    "long": -73.9681265
  },
  {
    "institution": "Brooklyn Public Library",
    "secondary_location": "",
    "name": "Clarendon Library",
    "address1": "2035 Nostrand Ave.",
    "address2": "",
    "city": "Brooklyn",
    "state": "NY",
    "postal_code": 11210,
    "country_code": "US",
    "lat": 40.6357589,
    "long": -73.9476006
  },
  {
    "institution": "Brooklyn Public Library",
    "secondary_location": "",
    "name": "Clinton Hill Library",
    "address1": "380 Washington Ave. at Lafayette Ave.",
    "address2": "",
    "city": "Brooklyn",
    "state": "NY",
    "postal_code": 11238,
    "country_code": "US",
    "lat": 40.6873937,
    "long": -73.9660602
  },
  {
    "institution": "Brooklyn Public Library",
    "secondary_location": "",
    "name": "Coney Island Library",
    "address1": "1901 Mermaid Ave. (Near W. 19th St.)",
    "address2": "",
    "city": "Brooklyn",
    "state": "NY",
    "postal_code": 11224,
    "country_code": "US",
    "lat": 40.5767651,
    "long": -73.9860791
  },
  {
    "institution": "Brooklyn Public Library",
    "secondary_location": "",
    "name": "Cortelyou Library",
    "address1": "305 Cortelyou Rd. at Argyle Rd.",
    "address2": "",
    "city": "Brooklyn",
    "state": "NY",
    "postal_code": 11226,
    "country_code": "US",
    "lat": 40.64004,
    "long": -73.967446
  },
  {
    "institution": "Brooklyn Public Library",
    "secondary_location": "",
    "name": "Crown Heights Library",
    "address1": "560 New York Ave. at Maple St.",
    "address2": "",
    "city": "Brooklyn",
    "state": "NY",
    "postal_code": 11225,
    "country_code": "US",
    "lat": 40.661212,
    "long": -73.947938
  },
  {
    "institution": "Brooklyn Public Library",
    "secondary_location": "",
    "name": "Cypress Hills Library",
    "address1": "1197 Sutter Ave. at Crystal St.",
    "address2": "",
    "city": "Brooklyn",
    "state": "NY",
    "postal_code": 11208,
    "country_code": "US",
    "lat": 40.672699,
    "long": -73.873559
  },
  {
    "institution": "Brooklyn Public Library",
    "secondary_location": "",
    "name": "DeKalb Library",
    "address1": "790 Bushwick Ave. at DeKalb Ave.",
    "address2": "",
    "city": "Brooklyn",
    "state": "NY",
    "postal_code": 11221,
    "country_code": "US",
    "lat": 40.693928,
    "long": -73.929409
  },
  {
    "institution": "Brooklyn Public Library",
    "secondary_location": "",
    "name": "Dyker Library",
    "address1": "8202 13th Ave. (@ 82nd St.)",
    "address2": "",
    "city": "Brooklyn",
    "state": "NY",
    "postal_code": 11228,
    "country_code": "US",
    "lat": 40.616343,
    "long": -74.012011
  },
  {
    "institution": "Brooklyn Public Library",
    "secondary_location": "",
    "name": "East Flatbush Library",
    "address1": "9612 Church Ave. at. Rockaway Pkwy.",
    "address2": "",
    "city": "Brooklyn",
    "state": "NY",
    "postal_code": 11212,
    "country_code": "US",
    "lat": 40.659149,
    "long": -73.917928
  },
  {
    "institution": "",
    "secondary_location": "",
    "name": "Eastern Parkway Learning Center",
    "address1": "1044 Eastern Parkway - 2nd Floor",
    "address2": "",
    "city": "Brooklyn",
    "state": "NY",
    "postal_code": 11213,
    "country_code": "US",
    "lat": 40.668551,
    "long": -73.933656
  },
  {
    "institution": "",
    "secondary_location": "",
    "name": "Flatbush Learning Center",
    "address1": "22 Linden Blvd. at Flatbush Ave.",
    "address2": "",
    "city": "Brooklyn",
    "state": "NY",
    "postal_code": 11226,
    "country_code": "US",
    "lat": 40.65276,
    "long": -73.95951
  },
  {
    "institution": "",
    "secondary_location": "",
    "name": "Flatbush Library",
    "address1": "22 Linden Blvd. at Flatbush Ave.",
    "address2": "",
    "city": "Brooklyn",
    "state": "NY",
    "postal_code": 11226,
    "country_code": "US",
    "lat": 40.65276,
    "long": -73.95951
  },
  {
    "institution": "",
    "secondary_location": "",
    "name": "Flatlands Library",
    "address1": "2065 Flatbush Ave. at Ave. P",
    "address2": "",
    "city": "Brooklyn",
    "state": "NY",
    "postal_code": 11234,
    "country_code": "US",
    "lat": 40.619655,
    "long": -73.933389
  },
  {
    "institution": "",
    "secondary_location": "",
    "name": "Fort Hamilton Library",
    "address1": "9424 Fourth Ave.",
    "address2": "",
    "city": "Brooklyn",
    "state": "NY",
    "postal_code": 11209,
    "country_code": "US",
    "lat": 40.616332,
    "long": -74.031342
  },
  {
    "institution": "",
    "secondary_location": "",
    "name": "Gerritsen Beach Library",
    "address1": "2808 Gerritsen Ave.",
    "address2": "",
    "city": "Brooklyn",
    "state": "NY",
    "postal_code": 11229,
    "country_code": "US",
    "lat": 40.591472,
    "long": -73.923877
  },
  {
    "institution": "",
    "secondary_location": "",
    "name": "Gravesend Library",
    "address1": "303 Ave. X at West. 2nd St.",
    "address2": "",
    "city": "Brooklyn",
    "state": "NY",
    "postal_code": 11223,
    "country_code": "US",
    "lat": 40.586017,
    "long": -73.97127
  },
  {
    "institution": "",
    "secondary_location": "",
    "name": "Greenpoint Library",
    "address1": "107 Norman Ave. at Leonard St.",
    "address2": "",
    "city": "Brooklyn",
    "state": "NY",
    "postal_code": 11222,
    "country_code": "US",
    "lat": 40.726008,
    "long": -73.950694
  },
  {
    "institution": "",
    "secondary_location": "",
    "name": "Highlawn Library",
    "address1": "1664 W. 13th St. at Kings Highway",
    "address2": "",
    "city": "Brooklyn",
    "state": "NY",
    "postal_code": 11223,
    "country_code": "US",
    "lat": 40.608527,
    "long": -73.958381
  },
  {
    "institution": "",
    "secondary_location": "",
    "name": "Homecrest Library",
    "address1": "2525 Coney Island Ave. at Ave. V",
    "address2": "",
    "city": "Brooklyn",
    "state": "NY",
    "postal_code": 11223,
    "country_code": "US",
    "lat": 40.594455,
    "long": -73.960624
  },
  {
    "institution": "",
    "secondary_location": "",
    "name": "Jamaica Bay Library",
    "address1": "9727 Seaview Ave. at E. 98th St. near Rockaway Pkwy.",
    "address2": "",
    "city": "Brooklyn",
    "state": "NY",
    "postal_code": 11236,
    "country_code": "US",
    "lat": 40.63448,
    "long": -73.88932
  },
  {
    "institution": "",
    "secondary_location": "",
    "name": "Kensington Library",
    "address1": "4207 18th Avenue",
    "address2": "",
    "city": "Brooklyn",
    "state": "NY",
    "postal_code": 11218,
    "country_code": "US",
    "lat": 40.631352,
    "long": -73.975512
  }
]